{
  "type": "FeatureCollection",
  "features": [
    {"type":"Feature","properties":{"city":"New York","name":"45th Street Theater","tel":"(212) 352-3101","addres2":"","zip":"10036.0","url":"http://www.theatermania.com/new-york/theaters/45th-street-theatre_2278/","address1":"354 West 45th Street"},"geometry":{"type":"Point","coordinates":[-73.99061840882582,40.75985115447559]}},{"type":"Feature","properties":{"city":"New York","name":"47th Street Theater","tel":"(800) 775-1617","addres2":"","zip":"10036.0","url":"http://www.bestofoffbroadway.com/theaters/47streettheatre.html","address1":"304 West 47th Street"},"geometry":{"type":"Point","coordinates":[-73.9881059525377,40.76047123447081]}},{"type":"Feature","properties":{"city":"New York","name":"59E59","tel":"(212) 753-5959","addres2":"","zip":"10022.0","url":"http://www.59e59.org/","address1":"59 East 59th Street"},"geometry":{"type":"Point","coordinates":[-73.97038450260143,40.76339942774153]}},{"type":"Feature","properties":{"city":"New York","name":"Acorn Theater","tel":"(212) 279-4200","addres2":"","zip":"10036.0","url":"http://www.theatrerow.org/theacorn.htm","address1":"410 West 42nd Street"},"geometry":{"type":"Point","coordinates":[-73.99332384622063,40.7585366821068]}},{"type":"Feature","properties":{"city":"New York","name":"Al Hirschfeld Theater","tel":"(212) 239-6200","addres2":"","zip":"10036.0","url":"http://www.newyorkcitytheatre.com/theaters/alhirschfeldtheater/theater.php","address1":"302 W 45th Street"},"geometry":{"type":"Point","coordinates":[-73.9892143340222,40.75926091219353]}},{"type":"Feature","properties":{"city":"New York","name":"Ambassador Theatre","tel":"(800) 432-7565","addres2":"","zip":"10019.0","url":"http://www.shubertorganization.com/theatres/ambassador.asp","address1":"219 West 49th Street"},"geometry":{"type":"Point","coordinates":[-73.98500141035261,40.761258614543465]}},{"type":"Feature","properties":{"city":"New York","name":"American Airlines Theatre","tel":"(212) 719-9393","addres2":"","zip":"10036.0","url":"http://www.newyorkcitytheatre.com/theaters/americanairlinestheater/theater.php","address1":"227 W 42nd Street"},"geometry":{"type":"Point","coordinates":[-73.98804923812347,40.756778744642034]}},{"type":"Feature","properties":{"city":"New York","name":"Apollo Theater","tel":"(212) 531-5300","addres2":"","zip":"10027.0","url":"http://www.apollotheater.org/","address1":"253 West 125th Street"},"geometry":{"type":"Point","coordinates":[-73.95003984288864,40.81003732389831]}},{"type":"Feature","properties":{"city":"New York","name":"Arclight Theatre","tel":"(212) 595-0355","addres2":"","zip":"10023.0","url":"http://www.nytheatre.com/nytheatre/arclight.htm","address1":"152 W 71st St"},"geometry":{"type":"Point","coordinates":[-73.98121028824352,40.77711991105619]}},{"type":"Feature","properties":{"city":"New York","name":"Astor Place Theatre","tel":"(212) 254-4370","addres2":"Frnt","zip":"10003.0","url":"http://www.newyorkcitytheatre.com/theaters/astorplacetheater/theater.php","address1":"434 Lafayette St"},"geometry":{"type":"Point","coordinates":[-73.99234386140574,40.7293774091894]}},{"type":"Feature","properties":{"city":"New York","name":"Atlantic Theatre","tel":"(212) 645-1242","addres2":"","zip":"10011.0","url":"http://www.atlantictheater.org/","address1":"336 W 20th St"},"geometry":{"type":"Point","coordinates":[-74.00155441083812,40.74388769285208]}},{"type":"Feature","properties":{"city":"New York","name":"August Wilson Theatre","tel":"(212) 239-6200","addres2":"","zip":"10019.0","url":"http://www.newyorkcitytheatre.com/theaters/augustwilsontheater/theater.php","address1":"245 W 52nd Street"},"geometry":{"type":"Point","coordinates":[-73.98419954033942,40.76337195930883]}},{"type":"Feature","properties":{"city":"New York","name":"Barrow Street Theatre","tel":"(212) 243-6262","addres2":"","zip":"10014.0","url":"http://www.barrowstreettheatre.com/index.asp","address1":"27 Barrow St"},"geometry":{"type":"Point","coordinates":[-74.00308826166064,40.732329478227996]}},{"type":"Feature","properties":{"city":"New York","name":"Beacon Theatre","tel":"(212) 465-6500","addres2":"","zip":"10023.0","url":"http://www.beacontheatre.com/","address1":"2124 Broadway"},"geometry":{"type":"Point","coordinates":[-73.98099283696455,40.78056072965963]}},{"type":"Feature","properties":{"city":"New York","name":"Belasco Theatre","tel":"(212) 944-3700","addres2":"","zip":"10036.0","url":"http://www.shubertorganization.com/theatres/belasco.asp","address1":"111 W 44th St"},"geometry":{"type":"Point","coordinates":[-73.98378603872446,40.75665276831218]}},{"type":"Feature","properties":{"city":"New York","name":"Bernard B. Jacobs Theatre","tel":"(212) 944-3700","addres2":"","zip":"10036.0","url":"http://www.shubertorganization.com/theatres/bernard_b_jacobs.asp","address1":"242 W 45th Street"},"geometry":{"type":"Point","coordinates":[-73.98772366095284,40.75862947194397]}},{"type":"Feature","properties":{"city":"New York","name":"Bleecker Street Theater","tel":"(212) 260-8250","addres2":"","zip":"10012.0","url":"http://www.45bleecker.com/","address1":"45 Bleecker Street"},"geometry":{"type":"Point","coordinates":[-73.9941751264985,40.72595304815785]}},{"type":"Feature","properties":{"city":"New York","name":"Booth Theatre","tel":"(212) 944-3700","addres2":"","zip":"10036.0","url":"http://www.shubertorganization.com/theatres/booth.asp","address1":"222 W 45th St"},"geometry":{"type":"Point","coordinates":[-73.98708845729641,40.75837297119638]}},{"type":"Feature","properties":{"city":"New York","name":"Broadhurst Theatre","tel":"(212) 944-3700","addres2":"","zip":"10036.0","url":"http://www.shubertorganization.com/theatres/broadhurst.asp","address1":"235 W 44th St"},"geometry":{"type":"Point","coordinates":[-73.98762265805847,40.7582644097864]}},{"type":"Feature","properties":{"city":"New York","name":"Broadway Theatre","tel":"(212) 944-3700","addres2":"","zip":"10019.0","url":"http://www.shubertorganization.com/theatres/broadway.asp","address1":"1681 Broadway"},"geometry":{"type":"Point","coordinates":[-73.98335054631019,40.763270202723625]}},{"type":"Feature","properties":{"city":"New York","name":"Brooks Atkinson Theatre","tel":"(212) 719-4099","addres2":"","zip":"10036.0","url":"http://www.brooksatkinsontheater.com/","address1":"256 W 47th St"},"geometry":{"type":"Point","coordinates":[-73.98698342692427,40.75995784629166]}},{"type":"Feature","properties":{"city":"New York","name":"Castillo Theater","tel":"(212) 941-9400","addres2":"","zip":"10036.0","url":"http://www.castillo.org/","address1":"543 West 42nd Street"},"geometry":{"type":"Point","coordinates":[-73.99696366480416,40.76060535386334]}},{"type":"Feature","properties":{"city":"New York","name":"Century Center For the Performing Arts","tel":"(212) 239-6200","addres2":"","zip":"10003.0","url":"http://www.theatermania.com/new-york/theaters/century-center-for-the-performing-arts_59/","address1":"111 E 15th St"},"geometry":{"type":"Point","coordinates":[-73.98888987417567,40.73516747649935]}},{"type":"Feature","properties":{"city":"New York","name":"Cherry Lane Theatre","tel":"(212) 989-2020Â¿","addres2":"","zip":"10014.0","url":"http://cherrylanetheatre.org/","address1":"38 Commerce Street"},"geometry":{"type":"Point","coordinates":[-74.00531118864133,40.73126210531373]}},{"type":"Feature","properties":{"city":"New York","name":"Circle In the Square Theatre","tel":"(212) 307-0388","addres2":"","zip":"10019.0","url":"http://www.circlesquare.org/","address1":"1633 Broadway"},"geometry":{"type":"Point","coordinates":[-73.98454846724013,40.7620294570833]}},{"type":"Feature","properties":{"city":"New York","name":"Connelly Theater","tel":"(212) 982-2287","addres2":"","zip":"10009.0","url":"http://www.connellycenter.org/theatre.htm","address1":"220 E 4th St"},"geometry":{"type":"Point","coordinates":[-73.98361167544834,40.72357458833006]}},{"type":"Feature","properties":{"city":"New York","name":"Cort Theatre","tel":"(212) 944-3700","addres2":"","zip":"10036.0","url":"http://www.shubertorganization.com/theatres/cort.asp","address1":"138 W 48th St"},"geometry":{"type":"Point","coordinates":[-73.98305628861287,40.759117443725735]}},{"type":"Feature","properties":{"city":"New York","name":"Daryl Roth Theatre","tel":"(212) 375-1110","addres2":"","zip":"10003.0","url":"http://www.darylroththeatre.com/","address1":"101 E 15th St"},"geometry":{"type":"Point","coordinates":[-73.98936976592013,40.73528280097754]}},{"type":"Feature","properties":{"city":"New York","name":"Duke Theatre","tel":"(646) 223-3010","addres2":"","zip":"10036.0","url":"http://www.new42.org/duke/duke_home.aspx","address1":"229 W. 42nd St"},"geometry":{"type":"Point","coordinates":[-73.98817225074761,40.75682251401904]}},{"type":"Feature","properties":{"city":"New York","name":"Ed Sullivan Theater","tel":"(212) 975-4321","addres2":"","zip":"10019.0","url":"http://www.newyorkcitytheatre.com/theaters/edsullivantheater/theater.php","address1":"1697 Broadway"},"geometry":{"type":"Point","coordinates":[-73.98289838910983,40.76380679125535]}},{"type":"Feature","properties":{"city":"New York","name":"Ethel Barrymore Theatre","tel":"(212) 944-3700","addres2":"","zip":"10036.0","url":"http://www.shubertorganization.com/theatres/ethel_barrymore.asp","address1":"243 West 47th Street"},"geometry":{"type":"Point","coordinates":[-73.98615677726568,40.76010047723625]}},{"type":"Feature","properties":{"city":"New York","name":"Eugene O'Neill Theater","tel":"(888) VISIT-NY","addres2":"","zip":"10019.0","url":"http://www.ibdb.com/venue.php?id=1158","address1":"230 W 49th St"},"geometry":{"type":"Point","coordinates":[-73.98576310963361,40.761077557651895]}},{"type":"Feature","properties":{"city":"New York","name":"Gene Frankel Theatre Workshop","tel":"(212) 777-1767","addres2":"","zip":"10012.0","url":"http://www.genefrankel.com/presentation_content.html","address1":"24 Bond St"},"geometry":{"type":"Point","coordinates":[-73.99363928115454,40.72667007536653]}},{"type":"Feature","properties":{"city":"New York","name":"Gerald Schoenfeld Theatre","tel":"(212) 944-3700","addres2":"","zip":"10036.0","url":"http://www.shubertorganization.com/theatres/gerald_schoenfeld.asp","address1":"236 W 45th Street"},"geometry":{"type":"Point","coordinates":[-73.98742769449645,40.7585059264205]}},{"type":"Feature","properties":{"city":"New York","name":"Gershwin Theatre","tel":"(212) 586-6510","addres2":"","zip":"10019.0","url":"http://www.gershwintheatre.com/","address1":"222 W 51st St"},"geometry":{"type":"Point","coordinates":[-73.98515837240934,40.76242129385231]}},{"type":"Feature","properties":{"city":"New York","name":"Gramercy Arts Theatre","tel":"(212) 889-2850","addres2":"","zip":"10016.0","url":"http://www.theatermania.com/new-york/theaters/gramercy-arts-theatre_657/","address1":"138 E 27th St"},"geometry":{"type":"Point","coordinates":[-73.9825777128951,40.74165281725965]}},{"type":"Feature","properties":{"city":"New York","name":"Greenwich Street Theater","tel":"(888) VISIT-NY","addres2":"","zip":"10013.0","url":"http://www.theatermania.com/new-york/theaters/greenwich-street-theatre_196/","address1":"547 Greenwich St"},"geometry":{"type":"Point","coordinates":[-74.0086229506248,40.7272929872204]}},{"type":"Feature","properties":{"city":"New York","name":"Harold Clurman Theater","tel":"(888) VISIT-NY","addres2":"","zip":"10036.0","url":"http://www.theatermania.com/new-york/theaters/harold-clurman-theater_695/","address1":"412 W 42nd St"},"geometry":{"type":"Point","coordinates":[-73.99342333607564,40.75853551489779]}},{"type":"Feature","properties":{"city":"New York","name":"Helen Hayes Theater","tel":"(212) 944-9450","addres2":"","zip":"10036.0","url":"http://www.nytheatre.com/nytheatre/hayes.htm","address1":"240 W 44th St"},"geometry":{"type":"Point","coordinates":[-73.98783930834124,40.75786370056241]}},{"type":"Feature","properties":{"city":"New York","name":"Henry Miller Theatre","tel":"(212) 719-1300","addres2":"","zip":"10036.0","url":"http://www.roundabouttheatre.org/hmt/","address1":"124 W 43rd St"},"geometry":{"type":"Point","coordinates":[-73.98471393486172,40.75556597677324]}},{"type":"Feature","properties":{"city":"New York","name":"Here Theater","tel":"(212) 352-3101","addres2":"","zip":"10013.0","url":"http://www.here.org","address1":"145 6th Avenue"},"geometry":{"type":"Point","coordinates":[-74.00494630981744,40.72512759155801]}},{"type":"Feature","properties":{"city":"New York","name":"Hilton Theatre","tel":"(212) 556-4750","addres2":"","zip":"10036.0","url":"http://www.hiltontheatre.com/home.php?size=1280","address1":"214 W 43rd Street"},"geometry":{"type":"Point","coordinates":[-73.98761935995667,40.75659285992755]}},{"type":"Feature","properties":{"city":"New York","name":"Imperial Theatre","tel":"(212) 944-3700","addres2":"","zip":"10036.0","url":"http://www.shubertorganization.com/theatres/imperial.asp","address1":"249 W 45th St"},"geometry":{"type":"Point","coordinates":[-73.98734087596033,40.75894905320539]}},{"type":"Feature","properties":{"city":"New York","name":"Jane Street Theatre","tel":"(212) 924-8404","addres2":"","zip":"10014.0","url":"http://www.nyc.com/arts__attractions/jane_street_theatre.98884/editorial_review.aspx","address1":"113 Jane St"},"geometry":{"type":"Point","coordinates":[-74.00932442928037,40.73829939806719]}},{"type":"Feature","properties":{"city":"New York","name":"John Golden Theatre","tel":"(212) 944-3700","addres2":"","zip":"10036.0","url":"http://www.shubertorganization.com/theatres/john_golden.asp","address1":"252 W 45th St"},"geometry":{"type":"Point","coordinates":[-73.98796548938121,40.75872007426365]}},{"type":"Feature","properties":{"city":"New York","name":"Julia Miles Theater","tel":"(212) 757-3900","addres2":"","zip":"10019.0","url":"http://www.womensproject.org/julia_miles_theater.htm","address1":"424 W 55th St"},"geometry":{"type":"Point","coordinates":[-73.98789903280681,40.76688567580885]}},{"type":"Feature","properties":{"city":"New York","name":"Kraine Theater","tel":"(888) VISIT-NY","addres2":"","zip":"10003.0","url":"http://www.httheater.org/rentersKRAINE.html","address1":"85 E 4th Street"},"geometry":{"type":"Point","coordinates":[-73.9898004922213,40.72659020108496]}},{"type":"Feature","properties":{"city":"New York","name":"La Mama Experimental Theatre","tel":"(212) 475-7710","addres2":"","zip":"10003.0","url":"http://www.lamama.org/","address1":"74A East 4th St"},"geometry":{"type":"Point","coordinates":[-73.99020241681514,40.72632769963496]}},{"type":"Feature","properties":{"city":"New York","name":"Lamb's Theatre","tel":"(212) 302-7847","addres2":"","zip":"10036.0","url":"http://www.lambstheatre.org/","address1":"130 W 44th St"},"geometry":{"type":"Point","coordinates":[-73.9845837801045,40.75649368325729]}},{"type":"Feature","properties":{"city":"New York","name":"Laura Pels Theater","tel":"(212) 719-9393","addres2":"","zip":"10001.0","url":"http://www.nytheatre.com/nytheatre/venue.php?t=laurapels","address1":"111 W 46th Street"},"geometry":{"type":"Point","coordinates":[-73.9824399583143,40.75786783420392]}},{"type":"Feature","properties":{"city":"New York","name":"Lion Theatre","tel":"(212) 714-2442","addres2":"","zip":"10036.0","url":"http://www.nytheatre.com/nytheatre/venue.php?t=lion","address1":"410 W 42nd St"},"geometry":{"type":"Point","coordinates":[-73.99342996751913,40.75845600118543]}},{"type":"Feature","properties":{"city":"New York","name":"Longacre Theatre","tel":"(212) 944-3700","addres2":"","zip":"10036.0","url":"http://www.shubertorganization.com/theatres/longacre.asp","address1":"220 W 48th St"},"geometry":{"type":"Point","coordinates":[-73.98597262959564,40.76035022623389]}},{"type":"Feature","properties":{"city":"New York","name":"Lucille Lortel Theatre","tel":"(212) 924-8782","addres2":"","zip":"10014.0","url":"http://www.lortel.org/llt_theater/","address1":"121 Christopher St"},"geometry":{"type":"Point","coordinates":[-74.0057443463025,40.73335633167908]}},{"type":"Feature","properties":{"city":"New York","name":"Lunt-Fontanne Theatre","tel":"(212) 575-9200","addres2":"","zip":"10036.0","url":"http://www.luntfontannetheatre.com/","address1":"205 W 46th St"},"geometry":{"type":"Point","coordinates":[-73.98591873041272,40.759180958639]}},{"type":"Feature","properties":{"city":"New York","name":"Lyceum Theatre","tel":"(212) 944-3700","addres2":"","zip":"10036.0","url":"http://www.shubertorganization.com/theatres/lyceum.asp","address1":"149 W 45th St"},"geometry":{"type":"Point","coordinates":[-73.98452950858237,40.75777478125931]}},{"type":"Feature","properties":{"city":"New York","name":"Majestic Theatre","tel":"(212) 944-3700","addres2":"","zip":"10036.0","url":"http://www.shubertorganization.com/theatres/majestic.asp","address1":"245 W 44th St"},"geometry":{"type":"Point","coordinates":[-73.98801246892573,40.75841266782391]}},{"type":"Feature","properties":{"city":"New York","name":"Manhattan Ensemble Theatre","tel":"(212) 925-1900","addres2":"","zip":"10013.0","url":"http://www.met.com/","address1":"55 Mercer St"},"geometry":{"type":"Point","coordinates":[-74.00120856050414,40.721987687822704]}},{"type":"Feature","properties":{"city":"New York","name":"Manhattan Theatre Source","tel":"(212) 260-4698","addres2":"Frnt","zip":"10011.0","url":"http://www.theatresource.org/index.htm","address1":"177 MacDougal St"},"geometry":{"type":"Point","coordinates":[-73.9984046343471,40.73282809021791]}},{"type":"Feature","properties":{"city":"New York","name":"Marquis Theatre","tel":"(212) 382-0100","addres2":"","zip":"10036.0","url":"http://www.marquistheatre.com/","address1":"1535 Broadway"},"geometry":{"type":"Point","coordinates":[-73.98589651327984,40.7585116052983]}},{"type":"Feature","properties":{"city":"New York","name":"Mazer Theatre","tel":"(212) 780-2300","addres2":"","zip":"10002.0","url":"http://www.newyorkcitytheatre.com/theaters/mazertheater/location.php","address1":"197 E Broadway"},"geometry":{"type":"Point","coordinates":[-73.98835232341061,40.71398064048623]}},{"type":"Feature","properties":{"city":"New York","name":"McGinn Cazale Theater","tel":"(212) 787-3242","addres2":"","zip":"10024.0","url":"http://www.theatermania.com/broadway/theaters/mcginncazale-theater_186/","address1":"2162 Broadway"},"geometry":{"type":"Point","coordinates":[-73.98055520583067,40.78180729924115]}},{"type":"Feature","properties":{"city":"New York","name":"Metropolitan Playhouse","tel":"(212) 995-8410","addres2":"","zip":"10009.0","url":"http://www.metropolitanplayhouse.org/","address1":"220 E 4th St"},"geometry":{"type":"Point","coordinates":[-73.98366127503361,40.72349764533098]}},{"type":"Feature","properties":{"city":"New York","name":"Michael Schimmel Center for the Arts at Pace University","tel":"(800) 874-7223","addres2":"","zip":"10038.0","url":"http://www.pace.edu/page.cfm?doc_id=26266","address1":"3 Spruce Street"},"geometry":{"type":"Point","coordinates":[-74.00509727556909,40.711356500121944]}},{"type":"Feature","properties":{"city":"New York","name":"Miller Theatre at Columbia University","tel":"(212) 854-7799","addres2":"","zip":"10027.0","url":"http://www.millertheatre.com/","address1":"2960 Broadway"},"geometry":{"type":"Point","coordinates":[-73.96346045582304,40.807586707391195]}},{"type":"Feature","properties":{"city":"New York","name":"Minskoff Theatre","tel":"(212) 869-0550","addres2":"Lbby","zip":"10036.0","url":"http://www.minskofftheatre.com/","address1":"1515 Broadway"},"geometry":{"type":"Point","coordinates":[-73.98605419441054,40.7579233360297]}},{"type":"Feature","properties":{"city":"New York","name":"Music Box Theatre","tel":"(212) 944-3700","addres2":"","zip":"10036.0","url":"http://www.shubertorganization.com/theatres/music_box.asp","address1":"239 W 45th St"},"geometry":{"type":"Point","coordinates":[-73.98714246124487,40.7588874146744]}},{"type":"Feature","properties":{"city":"New York","name":"Nederlander Theater","tel":"(212) 921-8000","addres2":"","zip":"10036.0","url":"http://nederlandertheatre.com/","address1":"208 W 41st St"},"geometry":{"type":"Point","coordinates":[-73.98830897127951,40.755486799823906]}},{"type":"Feature","properties":{"city":"New York","name":"Neil Simon Theatre","tel":"(212) 757-8646","addres2":"","zip":"10019.0","url":"http://www.neilsimontheatre.com/","address1":"250 W 52nd St"},"geometry":{"type":"Point","coordinates":[-73.98452812145446,40.76301793173241]}},{"type":"Feature","properties":{"city":"New York","name":"New Amsterdam Theater","tel":"(212) 282-2900","addres2":"","zip":"10036.0","url":"http://www.newamsterdamtheatre.net/index.htm","address1":"214 W 42nd St"},"geometry":{"type":"Point","coordinates":[-73.9877630076589,40.75612046652384]}},{"type":"Feature","properties":{"city":"New York","name":"New Victory Theatre","tel":"(646) 223-3010","addres2":"","zip":"10036.0","url":"http://www.newvictory.org/","address1":"209 West 42nd Street"},"geometry":{"type":"Point","coordinates":[-73.98746415730906,40.75655716099295]}},{"type":"Feature","properties":{"city":"New York","name":"New World Stages","tel":"(646) 871-1730","addres2":"","zip":"10019.0","url":"http://www.newworldstages.com/","address1":"340 West 50th Street"},"geometry":{"type":"Point","coordinates":[-73.98786703441492,40.76237395668448]}},{"type":"Feature","properties":{"city":"New York","name":"Next Stage Theater","tel":"(888) VISIT-NY","addres2":"","zip":"10014.0","url":"http://www.newyorkcitytheatre.com/theaters/nextstagetheater/location.php","address1":"312 West 11th Street"},"geometry":{"type":"Point","coordinates":[-74.00658864051292,40.735621467140966]}},{"type":"Feature","properties":{"city":"New York","name":"Nokia Theatre Times Square","tel":"(212) 930-1959","addres2":"","zip":"10036.0","url":"http://nokiatheatrenyc.com/","address1":"1515 Broadway"},"geometry":{"type":"Point","coordinates":[-73.98621794461265,40.757678172894884]}},{"type":"Feature","properties":{"city":"New York","name":"Ohio Theatre","tel":"(212) 966-4844","addres2":"","zip":"10012.0","url":"http://www.sohothinktank.org/index.html","address1":"66 Wooster Street"},"geometry":{"type":"Point","coordinates":[-74.00161141394004,40.72327983890941]}},{"type":"Feature","properties":{"city":"New York","name":"Ontological Hysteric Theater","tel":"(212) 941-8911","addres2":"","zip":"10013.0","url":"http://www.ontological.com/","address1":"260 W Broadway"},"geometry":{"type":"Point","coordinates":[-74.00567108963654,40.720546556543276]}},{"type":"Feature","properties":{"city":"New York","name":"Orpheum Theater","tel":"(212) 828-9738","addres2":"","zip":"10028.0","url":"http://www.orpheum-theater.com/","address1":"1538 3rd Ave"},"geometry":{"type":"Point","coordinates":[-73.95400942533547,40.77945537812588]}},{"type":"Feature","properties":{"city":"New York","name":"P.S.122 Performance Space","tel":"(212) 477-5288","addres2":"","zip":"10003.0","url":"http://www.ps122.org/","address1":"150 1st Ave"},"geometry":{"type":"Point","coordinates":[-73.98453728003108,40.728218122202]}},{"type":"Feature","properties":{"city":"New York","name":"Palace Theatre","tel":"(212) 730-8200","addres2":"","zip":"10036.0","url":"http://www.palacetheatreonbroadway.com/","address1":"1564 Broadway"},"geometry":{"type":"Point","coordinates":[-73.98447031550603,40.758889926706715]}},{"type":"Feature","properties":{"city":"New York","name":"Pearl Theatre","tel":"(212) 505-3401","addres2":"","zip":"10003.0","url":"http://www.pearltheatre.org/","address1":"80 Saint Marks Pl"},"geometry":{"type":"Point","coordinates":[-73.98579977557452,40.727559019006584]}},{"type":"Feature","properties":{"city":"New York","name":"People's Improv Theater","tel":"(212) 563-7488","addres2":"","zip":"10001.0","url":"http://www.thepit-nyc.com/","address1":"154 W 29th St"},"geometry":{"type":"Point","coordinates":[-73.99228995399157,40.74736717975171]}},{"type":"Feature","properties":{"city":"New York","name":"Playwrights Horizons Theater School","tel":"(212) 529-8720","addres2":"","zip":"10003.0","url":"http://www.phtschool.org/","address1":"440 Lafayette St"},"geometry":{"type":"Point","coordinates":[-73.9922209999171,40.729488634445005]}},{"type":"Feature","properties":{"city":"Queens","name":"Queens Theatre in the Park","tel":"(718) 760-0064","addres2":"","zip":"11352.0","url":"http://www.queenstheatre.org/web/","address1":"Flushing Meadows Corona Park"},"geometry":{"type":"Point","coordinates":[-73.84455209627207,40.74397928445518]}},{"type":"Feature","properties":{"city":"New York","name":"Rattlestick Theater","tel":"(212) 627-2556","addres2":"","zip":"10014.0","url":"http://www.rattlestick.org/","address1":"224 Waverly Pl"},"geometry":{"type":"Point","coordinates":[-74.00203650279532,40.73617406719814]}},{"type":"Feature","properties":{"city":"New York","name":"Richard Rodgers Theatre","tel":"(212) 221-1211","addres2":"","zip":"10036.0","url":"http://www.richardrodgerstheatre.com/","address1":"226 W 46th Street"},"geometry":{"type":"Point","coordinates":[-73.9867417603334,40.75903833018236]}},{"type":"Feature","properties":{"city":"New York","name":"Samuel J. Friedman Theatre (formerly the Biltmore)","tel":"(888) VISIT-NY","addres2":"","zip":"10036.0","url":"http://www.theatermania.com/broadway/theaters/samuel-j-friedman-theatre_7420/","address1":"261 W 47th St"},"geometry":{"type":"Point","coordinates":[-73.98674510476694,40.76037502090257]}},{"type":"Feature","properties":{"city":"New York","name":"Second Stage Theater","tel":"(212) 246-4422","addres2":"","zip":"10036.0","url":"http://www.2st.com/","address1":"307 W 43rd St"},"geometry":{"type":"Point","coordinates":[-73.98973789241076,40.758239914427065]}},{"type":"Feature","properties":{"city":"New York","name":"Shubert Theatre","tel":"(212) 944-3700","addres2":"Lbby","zip":"10036.0","url":"http://www.shubertorganization.com/theatres/shubert.asp","address1":"225 W 44th St"},"geometry":{"type":"Point","coordinates":[-73.98723930549964,40.758137611181176]}},{"type":"Feature","properties":{"city":"New York","name":"Snapple Theater Center","tel":"(212) 921-7862","addres2":"","zip":"10019.0","url":"http://www.nytheatre.com/nytheatre/venue.php?t=snapple","address1":"1627 Broadway"},"geometry":{"type":"Point","coordinates":[-73.98442891934225,40.76141062139737]}},{"type":"Feature","properties":{"city":"New York","name":"SoHo Playhouse","tel":"(212) 691-1555","addres2":"","zip":"10013.0","url":"http://www.sohoplayhouse.com/","address1":"15 Vandam St"},"geometry":{"type":"Point","coordinates":[-74.00436193722095,40.72653567529159]}},{"type":"Feature","properties":{"city":"New York","name":"SoHo Repertory Theatre","tel":"(212) 941-8632","addres2":"","zip":"10013.0","url":"http://www.sohorep.org/","address1":"86 Franklin St"},"geometry":{"type":"Point","coordinates":[-74.00472935248527,40.718230021804324]}},{"type":"Feature","properties":{"city":"New York","name":"St. James Theatre","tel":"(888) VISIT-NY","addres2":"Lbby","zip":"10036.0","url":"http://www.stjames-theater.com/?gclid=CPWjnLTO9p0CFcZM5QodoUaupw","address1":"246 W 44th St"},"geometry":{"type":"Point","coordinates":[-73.98816053699704,40.75799822657315]}},{"type":"Feature","properties":{"city":"New York","name":"Studio 54 Theatre","tel":"(212) 719-1300","addres2":"","zip":"10019.0","url":"http://www.roundabouttheatre.org/ot_54.htm","address1":"254 W 54th Street"},"geometry":{"type":"Point","coordinates":[-73.98377095865544,40.76435408364673]}},{"type":"Feature","properties":{"city":"New York","name":"Swedish Cottage Marionette Theater","tel":"(212) 988-9093","addres2":"","zip":"10025.0","url":"http://www.nycgovparks.org/sub_about/parks_divisions/historic_houses/hh_swedish_cottage.html","address1":"West Side at 79th Street"},"geometry":{"type":"Point","coordinates":[-73.97037578132182,40.77996630281343]}},{"type":"Feature","properties":{"city":"New York","name":"Tenement Theatre","tel":"(212) 431-0233","addres2":"","zip":"10002.0","url":"http://www.tenement.org/prog_theater.html","address1":"97 Orchard Street"},"geometry":{"type":"Point","coordinates":[-73.99027790676004,40.71854810051081]}},{"type":"Feature","properties":{"city":"New York","name":"The Beckett Theatre","tel":"(212) 714-2442","addres2":"9 Ave","zip":"10036.0","url":"http://www.theatrerow.org/thebeckett.htm","address1":"410 W 42 St"},"geometry":{"type":"Point","coordinates":[-73.99374147365816,40.75868460666427]}},{"type":"Feature","properties":{"city":"New York","name":"The Cherry Pit","tel":"(212) 633-6533","addres2":"","zip":"10014.0","url":"http://www.cherrylanetheatre.org/","address1":"155 Bank St"},"geometry":{"type":"Point","coordinates":[-74.00902180098625,40.73645809825258]}},{"type":"Feature","properties":{"city":"New York","name":"The Little Shubert theatre","tel":"(212) 944-3700","addres2":"","zip":"10036.0","url":"http://www.shubertorganization.com/theatres/little_shubert.asp","address1":"422 West 42nd Street"},"geometry":{"type":"Point","coordinates":[-73.99391778593146,40.75855311297125]}},{"type":"Feature","properties":{"city":"New York","name":"The Public Theater","tel":"(212) 260-2400","addres2":"","zip":"10003.0","url":"http://www.publictheater.org/","address1":"425 Lafayette St"},"geometry":{"type":"Point","coordinates":[-73.99177371983643,40.72892340209371]}},{"type":"Feature","properties":{"city":"Long Island City","name":"The Secret Theatre","tel":"(718) 392-0722","addres2":"","zip":"11101.0","url":"http://www.secrettheatre.com/","address1":"44-02 23rd St."},"geometry":{"type":"Point","coordinates":[-73.94482123207857,40.74890599748924]}},{"type":"Feature","properties":{"city":"New York","name":"The Upright Citizens Brigade Theatre","tel":"(212) 366-9176","addres2":"","zip":"10001.0","url":"http://www.ucbtheatre.com/","address1":"307 W 26th Street"},"geometry":{"type":"Point","coordinates":[-73.9973874129749,40.747653594271554]}},{"type":"Feature","properties":{"city":"New York","name":"The Walter Reade Theater at Lincoln Center","tel":"(212) 875-5600","addres2":"","zip":"10023.0","url":"http://www.filmlinc.com/wrt/wrt.html","address1":"70 Lincoln Center Plaza"},"geometry":{"type":"Point","coordinates":[-73.98424386556361,40.774102169778494]}},{"type":"Feature","properties":{"city":"New York","name":"The Zipper Theater","tel":"(212) 563-0480","addres2":"","zip":"10018.0","url":"http://www.yelp.com/biz/the-zipper-theater-new-york","address1":"336 W 37th St"},"geometry":{"type":"Point","coordinates":[-73.99403364237084,40.75467479348333]}},{"type":"Feature","properties":{"city":"New York","name":"Theater For The New City","tel":"(212) 254-1109","addres2":"","zip":"10003.0","url":"http://www.theaterforthenewcity.net/","address1":"155 1st Avenue"},"geometry":{"type":"Point","coordinates":[-73.98498034698733,40.72869278070282]}},{"type":"Feature","properties":{"city":"New York","name":"Theatre @ St. Clement's","tel":"(212) 246-7277","addres2":"","zip":"10036.0","url":"http://www.stclementsnyc.org/","address1":"423 West 46th Street"},"geometry":{"type":"Point","coordinates":[-73.99157114995049,40.76156669374937]}},{"type":"Feature","properties":{"city":"New York","name":"Theatre 80 St Marks","tel":"(212) 353-3321","addres2":"","zip":"10003.0","url":"http://www.theatermania.com/new-york/theaters/theater-80_3446/","address1":"80 Saint Marks Pl"},"geometry":{"type":"Point","coordinates":[-73.98575178908337,40.72762096989025]}},{"type":"Feature","properties":{"city":"New York","name":"Theatre Row","tel":"(212) 714-2442","addres2":"","zip":"10036.0","url":"http://www.theatrerow.org/","address1":"410 W 42nd Street"},"geometry":{"type":"Point","coordinates":[-73.99389624316413,40.75872836920871]}},{"type":"Feature","properties":{"city":"New York","name":"Under St. Marks","tel":"(212) 777-6088","addres2":"","zip":"10009.0","url":"http://www.httheater.org/rentersUNDER.html","address1":"94 St. Marks Place"},"geometry":{"type":"Point","coordinates":[-73.98496483499095,40.72728974704827]}},{"type":"Feature","properties":{"city":"New York","name":"Union Square Theater","tel":"(212) 505-0700","addres2":"","zip":"10003.0","url":"http://www.nytheatre.com/nytheatre/union.htm","address1":"100 E 17th St"},"geometry":{"type":"Point","coordinates":[-73.98874896687076,40.73624066126629]}},{"type":"Feature","properties":{"city":"New York","name":"Village Theater","tel":"(212) 253-0623","addres2":"","zip":"10012.0","url":"http://www.villagetheatre.org/","address1":"158 Bleecker St"},"geometry":{"type":"Point","coordinates":[-74.00022350602671,40.728455101424615]}},{"type":"Feature","properties":{"city":"New York","name":"Vineyard Theatre","tel":"(212) 353-3366","addres2":"","zip":"10003.0","url":"http://www.vineyardtheatre.org/","address1":"108 E 15th St"},"geometry":{"type":"Point","coordinates":[-73.98918917658457,40.73469974282689]}},{"type":"Feature","properties":{"city":"New York","name":"Walkerspace Theater","tel":"(212) 868-4444","addres2":"","zip":"10013.0","url":"http://www.theateronline.com/venuebook.xzc?PK=238&View=Hist","address1":"46 Walker Street"},"geometry":{"type":"Point","coordinates":[-74.00351370204922,40.71931150109748]}},{"type":"Feature","properties":{"city":"New York","name":"Wamu Theater (formerly Theater At Madison Square Garden)","tel":"(212) 465-6741","addres2":"","zip":"10001.0","url":"http://www.theateratmsg.com/","address1":"4 Penn Plaza"},"geometry":{"type":"Point","coordinates":[-73.99339518921583,40.75049725404502]}},{"type":"Feature","properties":{"city":"New York","name":"Westside Theater","tel":"(212) 315-2244","addres2":"","zip":"10036.0","url":"http://www.westsidetheatre.com/","address1":"407 W 43rd St"},"geometry":{"type":"Point","coordinates":[-73.99255324047746,40.759527416110735]}},{"type":"Feature","properties":{"city":"New York","name":"Wings Theatre","tel":"(212) 627-2960","addres2":"Bsmt","zip":"10014.0","url":"http://www.wingstheatre.com/","address1":"154 Christopher St"},"geometry":{"type":"Point","coordinates":[-74.0088925664614,40.73239903762212]}},{"type":"Feature","properties":{"city":"New York","name":"Winter Garden Theatre","tel":"(212) 944-3700","addres2":"","zip":"10019.0","url":"http://www.shubertorganization.com/theatres/winter_garden.asp","address1":"1634 Broadway"},"geometry":{"type":"Point","coordinates":[-73.98348163057112,40.761524646280805]}},{"type":"Feature","properties":{"city":"New York","name":"York Theatre","tel":"(212) 935-5820","addres2":"","zip":"10022.0","url":"http://www.yorktheatre.org/","address1":"619 Lexington Ave"},"geometry":{"type":"Point","coordinates":[-73.96997885915609,40.758357229201536]}},{"type":"Feature","properties":{"city":"New York","name":"Delacorte Theater","tel":"(212) 861-7277","addres2":"SW corner of the Great Lawn","zip":"0.0","url":"http://www.centralpark.com/pages/attractions/delacorte-theatre.html","address1":"Central Park - Mid-Park at 80th Street"},"geometry":{"type":"Point","coordinates":[-73.9688248050205,40.78017563530363]}}]
}